{
"type": "FeatureCollection",
"crs": { "type": "name", "properties": { "name": "urn:ogc:def:crs:OGC:1.3:CRS84" } },
"features": [
{ "type": "Feature", "properties": { "name": "Belfeld beneden", "x": 205929, "y": 372062 }, "geometry": { "type": "Point", "coordinates": [ 6.118027946285194, 51.335491153809208 ] } },
{ "type": "Feature", "properties": { "name": "Belfeld boven", "x": 205601, "y": 370168 }, "geometry": { "type": "Point", "coordinates": [ 6.113051107506688, 51.318497045981857 ] } },
{ "type": "Feature", "properties": { "name": "Borgharen Dorp", "x": 176413, "y": 320488 }, "geometry": { "type": "Point", "coordinates": [ 5.691402696834465, 50.87379739292588 ] } },
{ "type": "Feature", "properties": { "name": "Borgharen Julianakanaal", "x": 177183, "y": 320780 }, "geometry": { "type": "Point", "coordinates": [ 5.702359420188138, 50.876392784389054 ] } },
{ "type": "Feature", "properties": { "name": "Buggenum", "x": 197470, "y": 360278 }, "geometry": { "type": "Point", "coordinates": [ 5.995239999490885, 51.230271131761675 ] } },
{ "type": "Feature", "properties": { "name": "Eijsden grens", "x": 175903, "y": 307703 }, "geometry": { "type": "Point", "coordinates": [ 5.683422259944894, 50.758896136237226 ] } },
{ "type": "Feature", "properties": { "name": "Eisden Mazenhove", "x": 179494, "y": 332052 }, "geometry": { "type": "Point", "coordinates": [ 5.735955659189489, 50.977618713785631 ] } },
{ "type": "Feature", "properties": { "name": "Elsloo", "x": 180900, "y": 329865 }, "geometry": { "type": "Point", "coordinates": [ 5.755817527523044, 50.957898535338998 ] } },
{ "type": "Feature", "properties": { "name": "Gennep", "x": 194354, "y": 412179 }, "geometry": { "type": "Point", "coordinates": [ 5.956434528039352, 51.696997362047256 ] } },
{ "type": "Feature", "properties": { "name": "Grevenbicht pomplocatie Kingbeek", "x": 181327, "y": 333447 }, "geometry": { "type": "Point", "coordinates": [ 5.762156087787305, 50.990076319726583 ] } },
{ "type": "Feature", "properties": { "name": "Heel boven", "x": 192109, "y": 354025 }, "geometry": { "type": "Point", "coordinates": [ 5.917839618233478, 51.174442377757053 ] } },
{ "type": "Feature", "properties": { "name": "Herten pomplocatie Slenk", "x": 182502, "y": 339995 }, "geometry": { "type": "Point", "coordinates": [ 5.77939083781362, 51.048878440399641 ] } },
{ "type": "Feature", "properties": { "name": "Lanaken", "x": 175820, "y": 322235 }, "geometry": { "type": "Point", "coordinates": [ 5.683078741170957, 50.889522480887166 ] } },
{ "type": "Feature", "properties": { "name": "Linne beneden", "x": 193890, "y": 352442 }, "geometry": { "type": "Point", "coordinates": [ 5.943133564487202, 51.160094552161937 ] } },
{ "type": "Feature", "properties": { "name": "Maaseik", "x": 184023, "y": 345116 }, "geometry": { "type": "Point", "coordinates": [ 5.801494571253908, 51.094833663573496 ] } },
{ "type": "Feature", "properties": { "name": "Meeswijk veer", "x": 181586, "y": 335265 }, "geometry": { "type": "Point", "coordinates": [ 5.765978934492505, 51.006405656258487 ] } },
{ "type": "Feature", "properties": { "name": "Mook", "x": 187991, "y": 419020 }, "geometry": { "type": "Point", "coordinates": [ 5.865050798646535, 51.758896950174588 ] } },
{ "type": "Feature", "properties": { "name": "Neer", "x": 198076, "y": 363635 }, "geometry": { "type": "Point", "coordinates": [ 6.004321949573178, 51.260399286189354 ] } },
{ "type": "Feature", "properties": { "name": "Negenoord-Oost", "x": 181132, "y": 337893 }, "geometry": { "type": "Point", "coordinates": [ 5.759701605183271, 51.030048768455444 ] } },
{ "type": "Feature", "properties": { "name": "Roermond boven", "x": 196575, "y": 358215 }, "geometry": { "type": "Point", "coordinates": [ 5.982186281238487, 51.211794422328062 ] } },
{ "type": "Feature", "properties": { "name": "Roosteren pomplocatie Rulbeek", "x": 185884, "y": 344568 }, "geometry": { "type": "Point", "coordinates": [ 5.828011881666375, 51.089810015799983 ] } },
{ "type": "Feature", "properties": { "name": "Rotem Maas", "x": 181955, "y": 340161 }, "geometry": { "type": "Point", "coordinates": [ 5.771602984296571, 51.05039667967327 ] } },
{ "type": "Feature", "properties": { "name": "Sambeek beneden", "x": 195404, "y": 406446 }, "geometry": { "type": "Point", "coordinates": [ 5.970956260795692, 51.645393586846517 ] } },
{ "type": "Feature", "properties": { "name": "Sambeek boven", "x": 197722, "y": 405052 }, "geometry": { "type": "Point", "coordinates": [ 6.004274053709074, 51.632692264302328 ] } },
{ "type": "Feature", "properties": { "name": "Sint Pieter noord", "x": 176883, "y": 315739 }, "geometry": { "type": "Point", "coordinates": [ 5.69779325186894, 50.831092455435744 ] } },
{ "type": "Feature", "properties": { "name": "Stein pomplocatie Ur", "x": 195144, "y": 355147 }, "geometry": { "type": "Point", "coordinates": [ 5.961362727292626, 51.184321018894479 ] } },
{ "type": "Feature", "properties": { "name": "Stevensweert", "x": 186811, "y": 349145 }, "geometry": { "type": "Point", "coordinates": [ 5.841649134989607, 51.130899621636942 ] } },
{ "type": "Feature", "properties": { "name": "Uikhoven", "x": 178932, "y": 326257 }, "geometry": { "type": "Point", "coordinates": [ 5.727569690046372, 50.925553245789324 ] } },
{ "type": "Feature", "properties": { "name": "Venlo", "x": 209057, "y": 375900 }, "geometry": { "type": "Point", "coordinates": [ 6.163496875837548, 51.36969696118318 ] } },
{ "type": "Feature", "properties": { "name": "Well Dorp", "x": 203915, "y": 395685 }, "geometry": { "type": "Point", "coordinates": [ 6.092408847090901, 51.547995390982237 ] } }
]
}
